,City,Country,Lat,Lng,Max Temp,Humidity,Cloudiness,Wind Speed,Weather Description
0,Mataura,NZ,-46.19,168.86,55.11,65,99,10.65,overcast clouds
1,Hermanus,ZA,-34.42,19.23,39.99,92,85,3.18,light rain
2,Coruripe,BR,-10.13,-36.18,74.95,81,74,12.77,broken clouds
3,Chokurdakh,RU,70.63,147.92,41.32,85,100,4.68,overcast clouds
4,Khislavichi,RU,54.19,32.16,62.15,75,90,13.42,overcast clouds
5,Katsuura,JP,35.13,140.3,86.0,84,40,9.17,scattered clouds
6,Punta Arenas,CL,-53.15,-70.92,39.2,86,40,29.97,scattered clouds
7,Husavik,IS,66.04,-17.34,46.4,87,75,10.29,broken clouds
8,Necochea,AR,-38.55,-58.74,43.0,61,0,5.01,clear sky
9,Andros Town,BS,24.7,-77.77,86.0,66,20,10.29,few clouds
10,Butaritari,KI,3.07,172.79,83.48,70,50,10.51,scattered clouds
11,Havelock,US,34.88,-76.9,84.0,86,45,10.78,moderate rain
12,Ushuaia,AR,-54.8,-68.3,33.8,95,90,23.04,light snow
13,Krasnoselkup,RU,65.7,82.47,54.18,91,100,7.36,overcast clouds
14,Tapes,BR,-30.67,-51.4,69.6,90,36,5.64,moderate rain
15,Chadan,RU,51.28,91.58,48.43,80,73,2.04,broken clouds
16,Te Karaka,NZ,-38.47,177.87,62.92,53,4,6.2,clear sky
17,Rikitea,PF,-23.12,-134.97,70.27,68,46,7.05,scattered clouds
18,Hilo,US,19.73,-155.09,87.8,52,40,10.29,scattered clouds
19,Inhambane,MZ,-23.86,35.38,74.19,82,0,16.11,clear sky
20,Nhulunbuy,AU,-12.23,136.77,78.8,69,40,16.11,scattered clouds
21,Sosua,DO,19.77,-70.52,86.0,79,20,11.41,few clouds
22,Moanda,GA,-1.56,13.22,71.08,93,100,3.96,overcast clouds
23,Ancud,CL,-41.87,-73.82,45.0,80,30,8.21,scattered clouds
24,Agadez,NE,19.75,10.25,90.79,37,6,5.44,clear sky
25,Dikson,RU,73.51,80.55,42.12,97,100,19.66,overcast clouds
26,Carnarvon,AU,-24.87,113.63,53.6,66,0,9.17,clear sky
27,Yellowknife,CA,62.46,-114.35,48.2,93,90,18.34,light rain
28,Saint-Philippe,RE,-21.36,55.77,68.0,82,20,8.05,few clouds
29,Macusani,PE,-14.08,-70.43,41.72,70,24,6.76,few clouds
30,San Cristobal,VE,7.77,-72.22,87.8,55,40,8.05,scattered clouds
31,Avarua,CK,-21.21,-159.78,77.0,73,14,17.22,few clouds
32,Busselton,AU,-33.65,115.33,43.0,77,89,7.14,overcast clouds
33,Kargil,IN,34.57,76.1,52.43,55,5,5.53,clear sky
34,Port Alfred,ZA,-33.59,26.89,51.01,68,34,19.73,light rain
35,Sechura,PE,-5.56,-80.82,67.35,68,2,18.84,clear sky
36,Komsomolskiy,UZ,40.43,71.72,69.8,56,28,6.93,scattered clouds
37,Edd,ER,13.93,41.69,90.97,56,38,4.18,scattered clouds
38,Saint-Pierre,RE,-21.34,55.48,68.0,82,20,8.05,few clouds
39,Cidreira,BR,-30.18,-50.21,66.69,81,49,8.77,scattered clouds
40,Karratha,AU,-20.74,116.85,75.11,32,0,11.68,clear sky
41,Peleduy,RU,59.63,112.74,55.09,89,100,2.35,overcast clouds
42,Buala,SB,-8.14,159.59,84.54,72,81,8.14,broken clouds
43,Ambon,ID,-3.7,128.18,75.2,94,40,3.36,light rain
44,Alice Springs,AU,-23.7,133.88,75.0,24,0,8.5,clear sky
45,Nuevo Progreso,MX,23.17,-97.95,90.0,59,87,7.0,overcast clouds
46,Paamiut,GL,61.99,-49.67,45.5,86,59,11.77,broken clouds
47,Bathsheba,BB,13.22,-59.52,80.6,83,40,13.87,scattered clouds
48,Kudahuvadhoo,MV,2.67,72.89,83.07,67,91,4.32,overcast clouds
49,Isangel,VU,-19.55,169.27,73.4,88,75,13.87,broken clouds
50,Dubbo,AU,-32.25,148.62,53.6,71,0,3.36,clear sky
51,Cape Town,ZA,-33.93,18.42,46.0,93,20,2.24,moderate rain
52,Trincomalee,LK,8.57,81.23,80.78,78,100,17.74,overcast clouds
53,Kalmunai,LK,7.42,81.82,79.59,78,86,3.74,overcast clouds
54,Port-Cartier,CA,50.03,-66.87,54.0,71,90,3.36,overcast clouds
55,Churapcha,RU,62.0,132.43,58.14,38,100,13.18,overcast clouds
56,Vikravandi,IN,12.03,79.55,80.78,74,94,6.04,overcast clouds
57,San Blas,MX,21.52,-105.27,77.0,83,75,9.91,broken clouds
58,Zhezkazgan,KZ,47.8,67.71,65.1,43,0,9.22,clear sky
59,Ribeira Grande,PT,38.52,-28.7,75.09,93,100,6.51,overcast clouds
60,Srandakan,ID,-7.94,110.25,72.19,84,87,6.58,overcast clouds
61,Kapaa,US,22.08,-159.32,86.0,78,90,9.17,light rain
62,Kavaratti,IN,10.57,72.64,81.46,79,99,14.38,moderate rain
63,Desnogorsk,RU,54.15,33.28,59.72,83,82,10.22,broken clouds
64,Nelson Bay,AU,-32.72,152.15,54.0,76,0,6.93,clear sky
65,Cabo San Lucas,MX,22.89,-109.91,82.99,88,90,11.41,overcast clouds
66,Tilbury,GB,51.46,0.36,55.0,88,99,11.01,overcast clouds
67,Gojo,JP,34.35,135.7,90.0,88,75,3.36,broken clouds
68,New Norfolk,AU,-42.78,147.06,62.01,42,70,4.0,broken clouds
69,Topolobampo,MX,25.6,-109.05,91.99,78,90,11.41,overcast clouds
70,Gizo,SB,-8.1,156.84,83.41,77,11,10.49,few clouds
71,Greencastle,US,39.64,-86.86,77.0,61,1,11.41,clear sky
72,Mar Del Plata,AR,-38.0,-57.56,44.6,52,40,9.17,scattered clouds
73,Albany,US,42.6,-73.97,79.0,88,64,8.5,light rain
74,Ixtapa,MX,20.7,-105.2,86.0,70,75,10.29,broken clouds
75,Georgetown,MY,5.41,100.34,77.0,94,40,3.36,scattered clouds
76,Jiuquan,CN,39.74,98.52,55.44,52,1,4.07,clear sky
77,Maracacume,BR,-2.04,-45.96,77.14,78,63,5.01,broken clouds
78,Lebu,CL,-37.62,-73.65,46.11,70,1,16.35,clear sky
79,Quang Ngai,VN,15.12,108.8,76.87,84,7,3.65,clear sky
80,Lompoc,US,34.64,-120.46,70.0,64,1,13.87,clear sky
81,Hithadhoo,MV,-0.6,73.08,82.63,73,96,9.82,overcast clouds
82,Meulaboh,ID,4.14,96.13,76.03,90,99,4.65,light rain
83,East London,ZA,-33.02,27.91,54.27,58,77,18.66,broken clouds
84,Chake Chake,TZ,-5.25,39.77,72.28,85,16,6.58,few clouds
85,Nampula,MZ,-15.12,39.27,68.0,88,41,10.29,scattered clouds
86,Arraial Do Cabo,BR,-22.97,-42.03,73.4,73,0,17.22,clear sky
87,Khairpur,PK,27.53,68.76,90.37,52,13,4.05,few clouds
88,Bealanana,MG,-14.55,48.73,57.18,85,80,5.01,broken clouds
89,Faya,SA,18.39,42.45,69.8,60,16,2.21,few clouds
90,Jamestown,US,42.1,-79.24,66.99,77,90,16.11,overcast clouds
91,Skegness,GB,53.14,0.34,57.0,87,90,13.87,overcast clouds
92,Castro,BR,-24.79,-50.01,62.31,77,0,4.36,clear sky
93,Leh,IN,34.17,77.58,55.38,40,0,5.68,clear sky
94,Mount Gambier,AU,-37.83,140.77,55.4,76,75,17.22,broken clouds
95,Sorata,BO,-15.77,-68.63,51.67,69,40,5.35,scattered clouds
96,Voh,NC,-20.97,164.7,74.89,50,73,10.27,broken clouds
97,Dingle,PH,11.0,122.67,78.71,84,100,3.89,overcast clouds
98,Tukrah,LY,32.53,20.58,76.3,73,0,11.54,clear sky
99,Ndioum,SN,16.51,-14.65,84.2,74,1,4.7,clear sky
100,Marathon,US,44.9,-89.77,71.6,43,40,16.11,scattered clouds
101,Pioner,RU,55.32,85.95,55.4,100,40,4.47,light intensity shower rain
102,Esperance,AU,-33.87,121.9,48.2,93,90,3.36,overcast clouds
103,Bredasdorp,ZA,-34.53,20.04,42.8,93,76,2.24,light rain
104,Bluff,NZ,-46.6,168.33,53.55,74,86,32.93,overcast clouds
105,Coquimbo,CL,-29.95,-71.34,57.2,71,88,13.87,overcast clouds
106,Heinola,FI,61.21,26.04,53.6,93,20,10.29,few clouds
107,Tyulgan,RU,52.34,56.17,64.44,69,100,14.54,light rain
108,Henties Bay,NA,-22.12,14.28,52.0,78,0,14.94,clear sky
109,Yamada,JP,39.47,141.95,74.01,92,100,6.2,light rain
110,Le Port,RE,-20.94,55.29,68.0,82,75,17.22,light intensity drizzle rain
111,Ponta Do Sol,PT,32.67,-17.1,71.6,64,40,18.34,scattered clouds
112,Portland,US,45.52,-122.68,79.0,36,40,6.93,scattered clouds
113,Sukhobezvodnoye,RU,57.05,44.89,51.28,98,29,5.97,scattered clouds
114,Jining,CN,35.41,116.58,82.99,1,0,2.01,clear sky
115,Hun,LY,29.13,15.95,80.53,40,0,12.64,clear sky
116,Noumea,NC,-22.28,166.46,69.8,52,90,17.22,overcast clouds
117,Vila Velha,BR,-20.33,-40.29,73.4,88,20,11.41,few clouds
118,Alofi,NU,-19.06,-169.92,80.6,69,38,18.34,scattered clouds
119,Severobaykalsk,RU,55.65,109.32,53.19,88,99,1.23,light rain
120,Caravelas,BR,-17.71,-39.25,72.28,88,0,5.08,clear sky
121,Barrow,US,71.29,-156.79,37.4,86,90,16.11,haze
122,Vaini,TO,-21.2,-175.2,80.6,74,20,13.87,few clouds
123,Namatanai,PG,-3.67,152.43,83.5,70,28,8.39,scattered clouds
124,Kikwit,CD,-5.04,18.82,77.83,69,43,1.81,light rain
125,Mareeba,AU,-17.0,145.43,71.01,79,94,5.01,overcast clouds
126,Prince Rupert,CA,54.32,-130.32,59.0,82,75,5.82,broken clouds
127,Fairbanks,US,64.84,-147.72,64.0,63,1,4.7,clear sky
128,Khanpur,PK,28.65,70.66,91.11,51,7,3.49,clear sky
129,Farah,AF,32.5,62.5,62.35,31,0,4.99,clear sky
130,Norman Wells,CA,65.28,-126.83,57.2,44,20,10.29,few clouds
131,Nikolskoye,RU,59.7,30.79,55.4,93,75,6.71,light intensity shower rain
132,Pevek,RU,69.7,170.31,38.84,82,100,0.78,overcast clouds
133,Saint George,US,37.1,-113.58,98.6,16,1,17.22,clear sky
134,Beterou,BJ,9.2,2.26,71.62,95,33,2.86,scattered clouds
135,Haines Junction,CA,60.75,-137.51,57.24,51,60,7.56,broken clouds
136,Kodiak,US,57.79,-152.41,53.6,93,90,27.51,light rain
137,Beian,NO,63.66,9.57,50.0,81,75,5.82,light intensity shower rain
138,Lokosovo,RU,61.13,74.82,52.5,96,83,5.14,broken clouds
139,Brasileia,BR,-11.02,-68.75,87.87,31,5,1.43,clear sky
140,Saldanha,ZA,-33.01,17.94,41.0,75,16,3.36,few clouds
141,Kontagora,NG,10.4,5.47,71.51,95,76,3.4,broken clouds
142,Mahebourg,MU,-20.41,57.7,69.8,77,75,14.99,broken clouds
143,Pacific Grove,US,36.62,-121.92,69.8,60,1,12.75,haze
144,Luanda,AO,-8.84,13.23,68.0,88,20,5.82,few clouds
145,Paita,PE,-5.09,-81.11,64.58,78,0,18.41,clear sky
146,Maniwaki,CA,46.38,-75.97,53.92,97,100,8.77,moderate rain
147,Port Keats,AU,-14.25,129.55,71.85,48,37,8.5,scattered clouds
148,Port Elizabeth,ZA,-33.92,25.57,46.4,93,40,14.99,light rain
149,Victoria,HK,22.29,114.16,84.0,70,0,3.0,clear sky
150,Oranjemund,NA,-28.55,16.43,51.13,74,0,5.84,clear sky
151,Flinders,AU,-34.58,150.86,66.0,76,0,4.0,clear sky
152,Atuona,PF,-9.8,-139.03,79.0,78,18,18.45,light rain
153,Vallenar,CL,-28.57,-70.76,60.55,32,26,2.3,scattered clouds
154,Pemangkat,ID,1.17,108.97,76.15,89,66,6.08,broken clouds
155,Batagay-Alyta,RU,67.8,130.41,50.59,53,100,2.04,overcast clouds
156,Khandyga,RU,62.67,135.6,54.39,44,100,5.26,overcast clouds
157,Adrar,MR,20.5,-10.07,96.94,9,58,18.07,broken clouds
158,Sindon,PH,17.06,122.02,76.75,88,100,0.89,overcast clouds
159,Chicama,PE,-7.84,-79.15,64.13,74,2,9.26,clear sky
160,Mount Isa,AU,-20.73,139.5,71.6,43,40,11.41,scattered clouds
161,Sur,OM,22.57,59.53,83.37,66,26,8.88,scattered clouds
162,Seddon,AU,-37.81,144.89,61.0,66,98,24.16,overcast clouds
163,Thompson,CA,55.74,-97.86,60.8,63,75,2.24,broken clouds
164,Sayyan,YE,15.17,44.32,62.28,61,16,0.2,few clouds
165,Kosh-Agach,RU,50.0,88.67,35.02,87,13,0.58,few clouds
166,Lorengau,PG,-2.02,147.27,83.77,73,86,12.48,overcast clouds
167,Kaili,ID,-3.46,120.21,70.74,79,86,1.01,overcast clouds
168,Starychi,UA,49.98,23.56,64.4,88,0,4.47,clear sky
169,Sambava,MG,-14.27,50.17,69.03,86,18,11.7,few clouds
170,Luderitz,NA,-26.65,15.16,52.14,65,0,17.81,clear sky
171,Fortuna,US,40.6,-124.16,66.99,72,1,13.87,clear sky
172,Severo-Kurilsk,RU,50.68,156.12,49.93,89,94,10.45,overcast clouds
173,Sterling,US,39.01,-77.43,84.2,70,75,5.82,broken clouds
174,Los Llanos De Aridane,ES,28.66,-17.92,73.4,78,75,17.22,light rain
175,Khatanga,RU,71.97,102.5,49.84,72,88,10.04,overcast clouds
176,Iqaluit,CA,63.75,-68.51,57.2,54,75,12.75,broken clouds
177,Tuktoyaktuk,CA,69.45,-133.04,46.4,75,40,12.75,scattered clouds
178,Uniao,BR,-4.59,-42.86,93.2,32,39,2.24,scattered clouds
179,Upernavik,GL,72.79,-56.15,40.64,72,0,5.28,clear sky
180,Lakota,CI,5.85,-5.69,69.12,97,53,3.09,broken clouds
181,Tchollire,CM,8.4,14.17,70.07,96,100,2.33,overcast clouds
182,Ngunguru,NZ,-35.62,174.5,60.6,62,0,3.6,clear sky
183,Itaueira,BR,-7.6,-43.03,82.08,38,11,5.08,few clouds
184,Guiratinga,BR,-16.35,-53.76,80.73,18,0,6.17,clear sky
185,Berlevag,NO,70.86,29.09,50.38,73,95,9.86,overcast clouds
186,Bengkulu,ID,-3.8,102.27,75.33,84,83,5.01,broken clouds
187,Carutapera,BR,-1.2,-46.02,78.15,81,30,8.7,scattered clouds
188,Camacha,PT,33.08,-16.33,69.8,60,40,13.87,scattered clouds
189,Nanortalik,GL,60.14,-45.24,50.09,73,100,10.47,overcast clouds
190,Visby,SE,57.64,18.3,61.0,87,42,19.46,scattered clouds
191,Faanui,PF,-16.48,-151.75,77.94,77,55,23.98,light rain
192,Gat,IL,31.61,34.76,82.0,90,0,2.19,clear sky
193,Sitka,US,57.05,-135.33,55.4,87,90,4.59,light rain
194,Sorland,NO,67.67,12.69,49.93,66,100,13.13,overcast clouds
195,Yumen,CN,40.28,97.2,51.26,60,0,3.94,clear sky
196,Boa Vista,BR,2.82,-60.67,82.4,69,75,9.17,shower rain
197,Palmer,US,42.16,-72.33,77.0,88,81,4.0,broken clouds
198,Ilulissat,GL,69.22,-51.1,46.4,61,40,6.93,scattered clouds
199,Antsohihy,MG,-14.88,47.99,65.88,76,4,6.51,clear sky
200,Eureka,US,40.8,-124.16,69.01,44,6,3.0,clear sky
201,Port Blair,IN,11.67,92.75,81.5,78,16,5.23,few clouds
202,Hervey Bay,AU,-25.3,152.85,71.01,68,12,9.17,few clouds
203,Nakhon Phanom,TH,17.41,104.78,75.72,92,99,3.44,overcast clouds
204,Jaciara,BR,-15.97,-54.97,80.83,17,0,2.37,clear sky
205,Ambilobe,MG,-13.2,49.05,63.45,86,0,3.49,clear sky
206,Pasni,PK,25.26,63.47,80.94,86,63,15.08,broken clouds
207,Bardiyah,LY,31.76,25.09,74.93,78,0,3.94,clear sky
208,Salalah,OM,17.02,54.09,77.0,94,90,2.24,overcast clouds
209,San Quintin,MX,30.48,-115.95,74.82,64,1,15.1,clear sky
210,Saskylakh,RU,71.92,114.08,53.37,57,100,3.96,overcast clouds
211,Mogosesti,RO,47.03,27.53,73.4,49,0,9.17,clear sky
212,Deputatskiy,RU,69.3,139.9,36.97,91,99,3.87,overcast clouds
213,Labuhan,ID,-6.88,112.21,74.39,80,92,7.72,overcast clouds
214,Leningradskiy,RU,69.38,178.42,37.15,87,100,10.51,overcast clouds
215,Huangmei,CN,30.19,116.03,76.82,81,0,2.86,clear sky
216,Hobart,AU,-42.88,147.33,62.01,58,75,8.05,broken clouds
217,Saint-Raphael,HT,19.43,-72.2,76.86,89,30,5.84,scattered clouds
218,Lovington,US,32.94,-103.35,99.0,16,5,10.29,clear sky
219,Srednekolymsk,RU,67.45,153.68,46.65,68,27,3.51,scattered clouds
220,Kysyl-Syr,RU,63.9,122.76,54.97,93,100,5.95,overcast clouds
221,Tuatapere,NZ,-46.13,167.68,55.58,68,95,12.64,overcast clouds
222,Buraydah,SA,26.33,43.98,84.2,26,0,3.36,clear sky
223,Bambous Virieux,MU,-20.34,57.76,70.0,77,75,14.99,broken clouds
224,Harper,LR,4.38,-7.72,75.72,85,88,12.12,light rain
225,Sampit,ID,-2.53,112.95,73.56,93,18,2.17,few clouds
226,Airai,TL,-8.93,125.41,61.12,39,25,2.98,scattered clouds
227,Hami,CN,42.8,93.45,65.39,31,30,5.35,scattered clouds
228,Tasiilaq,GL,65.61,-37.64,44.6,70,100,12.75,light rain
229,Avera,US,33.19,-82.53,86.0,83,1,4.7,clear sky
230,Dhidhdhoo,MV,6.88,73.1,83.03,69,87,7.47,overcast clouds
231,Lahij,YE,13.17,44.58,87.67,43,69,3.4,broken clouds
232,Tura,IN,25.52,90.22,73.71,95,80,4.09,broken clouds
233,Nicoya,CR,10.15,-85.45,86.0,74,40,11.41,scattered clouds
234,Tiksi,RU,71.69,128.87,44.1,82,0,7.81,clear sky
235,Cabedelo,BR,-6.98,-34.83,77.0,83,40,9.17,scattered clouds
236,Hualmay,PE,-11.1,-77.61,62.4,81,23,11.81,few clouds
237,Constitucion,CL,-35.33,-72.42,49.35,63,2,11.3,clear sky
238,Souillac,MU,-20.52,57.52,69.8,77,75,14.99,broken clouds
239,Puerto Ayora,EC,-0.74,-90.35,65.91,85,97,11.54,overcast clouds
240,Rio Verde De Mato Grosso,BR,-18.92,-54.84,83.03,15,0,2.42,clear sky
241,Paso De Ovejas,MX,19.28,-96.43,89.6,70,40,4.7,scattered clouds
242,Laibin,CN,23.7,109.27,79.61,83,79,0.6,broken clouds
243,Seoul,KR,37.57,126.98,77.0,100,90,2.55,mist
244,Clyde River,CA,70.47,-68.59,48.2,81,1,10.29,clear sky
245,Walvis Bay,NA,-22.96,14.51,52.0,78,0,14.92,clear sky
246,Fort-Shevchenko,KZ,44.51,50.26,74.23,77,0,13.22,clear sky
247,Santa Rosa,PH,14.31,121.11,84.99,79,100,13.87,light rain
248,Qaanaaq,GL,77.48,-69.36,33.85,83,0,3.65,clear sky
249,Port Macquarie,AU,-31.43,152.92,63.0,81,5,8.97,clear sky
250,Namwala,ZM,-15.75,26.44,68.88,28,0,3.29,clear sky
251,Mogadishu,SO,2.04,45.34,77.5,84,3,14.25,light rain
252,Yeola,IN,20.03,74.48,72.43,91,100,9.15,light rain
253,Lincoln,US,40.8,-96.67,81.0,30,1,5.19,clear sky
254,Yar-Sale,RU,66.83,70.83,39.76,86,62,8.32,broken clouds
255,Ahipara,NZ,-35.17,173.17,61.36,59,0,3.0,clear sky
256,Marondera,ZW,-18.19,31.55,60.82,41,0,7.25,clear sky
257,Bud,US,39.45,-86.18,78.01,53,40,10.29,scattered clouds
258,Saint-Augustin,CA,51.23,-58.65,58.39,61,60,5.26,broken clouds
259,Plymouth,US,41.83,-70.83,73.99,94,90,11.41,overcast clouds
260,Itarema,BR,-2.92,-39.92,78.84,74,2,19.46,clear sky
261,Grindavik,IS,63.84,-22.43,51.8,100,90,14.99,light intensity drizzle
262,Andenes,NO,69.31,16.12,46.4,81,100,8.05,light rain
263,Bayangol,RU,50.7,103.47,46.58,92,81,1.66,broken clouds
264,Ryzdvyanyy,RU,45.27,41.84,66.2,42,0,2.24,clear sky
265,Tete,MZ,-16.16,33.59,73.4,43,71,4.05,broken clouds
266,San Andres,CO,12.58,-81.7,78.8,88,90,4.7,overcast clouds
267,Zhigansk,RU,66.77,123.37,55.26,67,100,9.64,overcast clouds
268,Kerema,PG,-7.96,145.78,80.6,77,20,5.03,few clouds
269,Kokopo,PG,-4.35,152.26,83.62,70,38,15.5,scattered clouds
270,Jalpan,MX,21.23,-99.48,85.17,55,83,5.79,light rain
271,Oxelosund,SE,58.67,17.1,55.4,93,75,6.93,broken clouds
272,Bethel,US,41.37,-73.41,78.8,78,40,8.05,scattered clouds
273,Guasdualito,VE,7.24,-70.73,78.08,89,6,1.48,clear sky
274,Hamilton,US,39.18,-84.53,82.99,42,1,8.05,clear sky
275,Sekoma,BW,-24.4,23.88,47.37,51,14,17.11,few clouds
276,Nouadhibou,MR,20.93,-17.03,73.4,78,7,20.8,clear sky
277,Ust-Maya,RU,60.42,134.53,53.13,52,100,7.0,overcast clouds
278,Ucluelet,CA,48.93,-125.55,64.4,59,20,24.16,few clouds
279,Sao Filipe,CV,14.9,-24.5,79.68,85,58,7.43,broken clouds
280,Broome,US,42.25,-75.83,75.2,53,1,18.34,clear sky
281,Broken Hill,AU,-31.95,141.43,62.6,29,67,17.22,broken clouds
282,Jacqueville,CI,5.21,-4.41,77.0,94,75,6.93,broken clouds
283,Asau,RO,46.43,26.4,64.0,80,0,3.98,clear sky
284,Eurajoki,FI,61.2,21.73,55.4,76,100,2.24,overcast clouds
285,Nanning,CN,22.82,108.32,77.0,94,73,2.24,broken clouds
286,Scarborough,GB,54.28,-0.4,53.01,80,90,8.99,overcast clouds
287,Moose Factory,CA,51.26,-80.61,55.4,76,90,10.29,overcast clouds
288,Klaksvik,FO,62.23,-6.59,46.4,87,94,2.46,overcast clouds
289,Petropavlovsk-Kamchatskiy,RU,53.05,158.65,50.0,100,86,2.24,overcast clouds
290,Kahului,US,20.89,-156.47,91.4,43,20,31.09,few clouds
291,Andilamena,MG,-17.02,48.58,58.12,88,66,8.97,broken clouds
292,Nevinnomyssk,RU,44.63,41.95,64.0,4,0,1.99,clear sky
293,Acari,PE,-15.43,-74.62,63.12,71,68,6.15,broken clouds
294,Codrington,AU,-38.27,141.97,56.71,68,93,17.9,overcast clouds
295,Diffa,NE,13.32,12.61,77.85,67,100,2.04,overcast clouds
296,Rincon,US,32.3,-81.24,87.8,66,75,10.29,broken clouds
297,San Patricio,MX,19.22,-104.7,86.0,79,75,23.04,broken clouds
298,Dublin,US,37.7,-121.94,91.0,31,1,9.17,smoke
299,Solnechnyy,RU,50.72,136.63,55.54,60,99,3.13,overcast clouds
300,Wuxue,CN,29.85,115.55,75.4,86,0,0.25,clear sky
301,Half Moon Bay,US,37.46,-122.43,75.0,56,20,9.17,smoke
302,Arteaga,MX,18.47,-102.42,69.6,97,85,4.99,light rain
303,Manokwari,ID,-0.87,134.08,78.22,81,100,11.43,light rain
304,Palmeirais,BR,-5.98,-43.06,85.19,32,65,4.45,broken clouds
305,Mecca,SA,21.43,39.83,88.77,23,4,5.21,clear sky
306,Jinan,CN,36.67,117.0,81.0,94,0,4.47,fog
307,Benghazi,LY,32.12,20.07,78.98,63,0,14.56,clear sky
308,Loralai,PK,30.37,68.6,74.73,56,2,0.56,clear sky
309,Anadyr,RU,64.75,177.48,50.0,70,75,17.9,broken clouds
310,Safaga,EG,26.73,33.94,84.2,66,0,3.36,clear sky
311,Mechanicsville,US,37.61,-77.37,88.0,62,20,9.17,few clouds
312,Batemans Bay,AU,-35.72,150.18,64.0,52,0,5.99,clear sky
313,Chibombo,ZM,-14.66,28.07,64.49,29,2,1.83,clear sky
314,Bandar,ID,2.05,99.75,72.05,93,78,2.08,light rain
315,Longyearbyen,SJ,78.22,15.64,41.0,60,75,14.99,broken clouds
316,Mae Sai,TH,20.43,99.88,75.2,100,20,3.36,few clouds
317,Valparaiso,CL,-33.04,-71.63,60.8,71,0,13.87,clear sky
318,Banda,IN,25.48,80.33,78.17,84,79,10.25,broken clouds
319,Lasa,IT,46.62,10.7,54.0,100,75,4.7,light rain
320,Chuy,UY,-33.7,-53.46,54.34,80,95,14.45,overcast clouds
321,Banjar,ID,-8.19,114.97,78.8,83,75,12.75,broken clouds
322,Tigil,RU,57.8,158.67,53.78,67,49,3.29,scattered clouds
323,Cherskiy,RU,68.75,161.3,43.47,81,100,2.1,overcast clouds
324,Talnakh,RU,69.49,88.4,48.2,100,90,6.71,fog
325,Vuktyl,RU,63.86,57.31,51.22,94,100,6.38,light rain
326,Sinegorye,RU,62.08,150.48,42.96,64,3,4.32,clear sky
327,Pitimbu,BR,-7.47,-34.81,77.0,83,40,9.17,scattered clouds
328,Nome,US,64.5,-165.41,57.99,76,90,9.17,overcast clouds
329,Koundara,GN,12.48,-13.3,73.24,95,85,6.02,overcast clouds
330,Sembe,CG,1.65,14.58,70.99,93,100,3.51,overcast clouds
331,Sile,TR,41.18,29.61,75.99,74,0,1.99,clear sky
332,Ust-Omchug,RU,61.15,149.63,43.54,61,0,5.95,clear sky
333,Bichura,RU,50.59,107.6,56.52,88,100,0.49,overcast clouds
334,Hasaki,JP,35.73,140.83,84.2,83,20,3.36,few clouds
335,Ler,SS,8.3,30.14,71.74,86,77,1.66,broken clouds
336,Sao Joao Da Barra,BR,-21.64,-41.05,73.04,85,2,17.09,clear sky
337,Taltal,CL,-25.4,-70.48,55.83,61,21,3.69,few clouds
338,Ntungamo,UG,-0.88,29.65,65.25,90,100,2.06,light rain
339,Leshukonskoye,RU,64.9,45.76,48.76,81,100,6.22,overcast clouds
340,The Valley,AI,18.22,-63.06,84.99,79,75,13.87,broken clouds
341,Kushiro,JP,42.98,144.37,53.6,100,75,5.82,light intensity shower rain
342,Pisco,PE,-13.7,-76.22,62.6,77,75,19.46,broken clouds
343,Vila Franca Do Campo,PT,37.72,-25.43,75.2,78,20,5.82,few clouds
344,Bondeno,IT,44.89,11.41,70.0,88,68,4.0,broken clouds
345,Moron,AR,-34.65,-58.62,55.0,75,54,5.99,broken clouds
346,Arroyo,ES,41.61,-4.8,52.0,81,25,5.82,scattered clouds
347,Springbok,ZA,-29.66,17.89,34.39,94,0,4.29,clear sky
348,Yakeshi,CN,49.28,120.73,53.37,92,100,3.38,overcast clouds
349,Provideniya,RU,64.38,-173.3,52.18,66,56,10.56,broken clouds
350,Aklavik,CA,68.22,-135.01,57.2,54,20,3.36,few clouds
351,Amuntai,ID,-2.42,115.25,73.04,90,53,1.7,broken clouds
352,Umm Lajj,SA,25.02,37.27,85.06,49,0,7.43,clear sky
353,Taikang,CN,46.83,124.42,61.79,90,85,8.03,overcast clouds
354,Bilma,NE,18.69,12.92,87.8,44,66,9.44,light rain
355,Hollola,FI,61.05,25.43,53.01,94,100,1.01,overcast clouds
356,Karpogory,RU,64.0,44.45,53.02,87,100,7.4,overcast clouds
357,Kirkuk,IQ,35.47,44.39,89.92,16,0,12.62,clear sky
358,Bodden Town,KY,19.28,-81.25,89.6,70,20,8.05,few clouds
359,Yuty,PY,-26.6,-56.25,80.78,47,31,2.35,scattered clouds
360,Rocha,UY,-34.48,-54.33,50.88,87,100,15.35,overcast clouds
361,North Bend,US,43.41,-124.22,73.0,68,1,28.86,clear sky
362,Zharkent,KZ,44.16,80.0,61.95,53,0,2.48,clear sky
363,Santa Ana,US,33.75,-117.87,88.0,57,20,11.41,few clouds
364,Laguna,US,38.42,-121.42,93.0,27,1,8.05,clear sky
365,Puerto Escondido,MX,15.85,-97.07,84.2,74,75,5.82,broken clouds
366,Klichka,RU,50.45,118.0,51.57,99,100,4.54,light rain
367,Ushtobe,KZ,45.25,77.98,59.31,43,0,9.64,clear sky
368,Kingskettle,GB,56.26,-3.12,51.8,71,75,8.05,broken clouds
369,Kathmandu,NP,27.72,85.32,71.6,88,75,3.36,broken clouds
370,Wamba,NG,8.93,8.6,71.92,94,100,0.02,moderate rain
371,Labuan,MY,5.28,115.24,75.2,100,20,1.12,few clouds
372,Sol-Iletsk,RU,51.16,54.99,68.25,59,100,6.71,overcast clouds
373,Rosamorada,MX,22.12,-105.21,84.61,77,30,8.05,light rain
374,Ostersund,SE,63.18,14.64,48.2,93,31,3.36,scattered clouds
375,Shimoda,JP,34.67,138.95,84.0,75,0,1.01,clear sky
376,Hangu,CN,39.25,117.79,75.2,94,2,6.89,mist
377,Severo-Yeniseyskiy,RU,60.37,93.04,45.57,96,87,2.28,overcast clouds
378,Rawah,IQ,34.48,41.91,86.76,13,0,10.67,clear sky
379,Larsnes,NO,62.2,5.58,51.01,76,96,5.99,overcast clouds
380,Kuvshinovo,RU,57.03,34.17,54.19,92,100,7.96,overcast clouds
381,Alekseyevsk,RU,57.84,108.35,55.27,87,89,1.16,overcast clouds
382,Puerto Colombia,CO,10.99,-74.95,73.4,100,75,18.34,thunderstorm with heavy rain
383,San Rafael,AR,-34.62,-68.33,50.54,42,15,12.46,few clouds
384,Tabas,IR,33.6,56.92,82.4,14,0,6.93,clear sky
385,Hobyo,SO,5.35,48.53,77.13,85,49,23.96,scattered clouds
386,Padang,ID,-0.95,100.35,76.84,79,84,5.28,broken clouds
387,Guerrero Negro,MX,27.98,-114.06,80.96,64,17,12.66,moderate rain
388,Aden,YE,12.78,45.04,86.67,69,40,10.02,scattered clouds
389,Narsaq,GL,60.92,-46.05,60.8,31,59,21.92,broken clouds
390,Mishan,CN,45.55,131.88,61.57,97,100,4.7,overcast clouds
391,Miyako,JP,39.64,141.95,73.38,91,100,9.08,light rain
392,Sayat,TM,38.78,63.88,73.4,28,0,6.93,clear sky
393,Atar,MR,20.52,-13.05,96.06,12,2,8.19,clear sky
394,Paredon,MX,16.03,-93.87,83.93,69,3,4.38,clear sky
395,Sao Joao Do Piaui,BR,-8.36,-42.25,85.46,40,84,11.18,broken clouds
396,Hirara,JP,24.8,125.28,82.4,83,20,11.41,shower rain
397,Vikhorevka,RU,56.12,101.16,51.8,100,99,4.47,overcast clouds
398,San Jorge,AR,-31.9,-61.86,57.99,54,88,3.0,overcast clouds
399,Bhag,PK,29.04,67.82,92.84,45,0,7.4,clear sky
400,San Juan De Flores,HN,14.27,-87.03,82.4,54,40,11.41,scattered clouds
401,Nyurba,RU,63.28,118.33,51.46,89,100,3.13,overcast clouds
402,Omidiyeh,IR,30.76,49.7,87.8,29,0,3.31,clear sky
403,Geraldton,AU,-28.77,114.6,44.6,81,0,8.05,clear sky
404,Lensk,RU,60.73,114.93,54.9,89,80,5.06,broken clouds
405,Kutum,SD,14.2,24.67,75.16,59,71,3.42,broken clouds
406,Along,IN,28.17,94.77,71.6,89,100,1.3,overcast clouds
407,Katherine,AU,-14.47,132.27,71.6,60,79,10.29,broken clouds
408,Thomaston,US,32.89,-84.33,86.0,66,1,6.93,clear sky
409,Buta,CD,2.79,24.73,69.93,98,100,2.57,overcast clouds
410,Xinan,CN,26.72,119.86,79.9,83,44,4.68,scattered clouds
411,Vestmannaeyjar,IS,63.44,-20.27,52.56,90,97,10.89,overcast clouds
412,Kimbe,PG,-5.55,150.14,84.04,67,10,7.92,clear sky
413,Palana,RU,59.12,159.97,50.81,75,30,15.79,scattered clouds
414,Tazovskiy,RU,67.47,78.7,46.44,86,97,14.14,overcast clouds
415,Port Lincoln,AU,-34.73,135.87,56.21,70,54,20.24,broken clouds
416,Diapaga,BF,12.07,1.79,73.36,92,99,5.44,overcast clouds
417,Huanren,CN,41.26,125.37,68.58,90,2,1.99,clear sky
418,Imbituba,BR,-28.24,-48.67,66.2,93,12,4.7,few clouds
419,Aswan,EG,24.09,32.91,85.82,20,0,9.06,clear sky
420,Porto Novo,BJ,6.5,2.6,77.0,88,20,11.41,few clouds
421,Brewster,US,41.4,-73.62,81.0,78,40,8.05,scattered clouds
422,Basoko,CD,1.24,23.62,72.39,89,100,3.02,overcast clouds
423,Tagusao,PH,9.19,117.81,81.19,78,100,3.98,overcast clouds
424,Dudinka,RU,69.41,86.18,48.2,100,90,6.71,fog
425,Lavrentiya,RU,65.58,-171.0,49.05,63,11,8.61,few clouds
426,Sholokhovskiy,RU,48.28,41.05,65.03,57,70,2.37,broken clouds
427,Celestun,MX,20.87,-90.4,85.44,75,90,14.03,overcast clouds
428,Kaya,BF,13.09,-1.08,77.05,82,87,9.22,overcast clouds
429,Chimbote,PE,-9.09,-78.58,62.56,80,9,12.64,clear sky
430,Kadaya,RU,50.93,119.29,51.03,97,100,3.44,light rain
431,Westport,US,41.14,-73.36,77.0,91,64,10.07,broken clouds
432,Touros,BR,-5.2,-35.46,77.0,83,40,6.93,scattered clouds
433,Tornio,FI,65.85,24.15,42.8,100,0,8.05,clear sky
434,Coracao De Maria,BR,-12.23,-38.75,68.34,97,81,5.75,broken clouds
435,Banda Aceh,ID,5.56,95.32,79.5,79,88,6.55,light rain
436,Weligama,LK,5.97,80.42,78.37,85,84,10.25,light rain
437,Kinshasa,CD,-4.32,15.32,78.8,65,75,9.17,broken clouds
438,Souris,CA,49.62,-100.26,77.0,41,5,8.05,clear sky
439,Alakurtti,RU,66.97,30.35,39.99,94,88,2.59,overcast clouds
440,Woodward,US,36.43,-99.39,78.8,57,1,9.17,clear sky
441,Umm Kaddadah,SD,13.6,26.69,83.14,52,12,4.16,few clouds
442,Madimba,TZ,-10.4,40.33,72.39,83,0,7.29,clear sky
443,Margate,GB,51.38,1.39,61.0,90,98,8.01,light rain
444,Mwene-Ditu,CD,-7.0,23.45,71.67,76,57,2.62,moderate rain
445,Promyshlennovskiy,RU,55.48,86.2,55.4,100,40,4.47,light intensity shower rain
446,Elko,US,41.0,-115.5,90.0,5,0,8.99,clear sky
447,Nabire,ID,-3.37,135.48,75.69,92,100,2.75,light rain
448,Skaelskor,DK,55.25,11.29,61.0,100,0,5.66,clear sky
449,College,US,64.86,-147.8,64.0,63,40,6.93,scattered clouds
450,Winnipeg,CA,49.88,-97.15,75.2,36,20,5.82,few clouds
451,Isla Mujeres,MX,21.23,-86.73,87.8,74,75,16.11,broken clouds
452,Markala,ML,13.7,-6.07,76.03,87,99,6.87,moderate rain
453,Anchorage,US,61.22,-149.9,64.4,48,20,5.82,few clouds
454,Naze,JP,28.37,129.48,84.2,89,75,10.29,broken clouds
455,Najran,SA,17.49,44.13,82.4,21,38,2.24,scattered clouds
456,Plettenberg Bay,ZA,-34.05,23.37,46.29,80,30,10.69,light rain
457,Itoman,JP,26.12,127.67,84.2,83,20,10.29,few clouds
458,Tongzi,CN,28.78,105.09,75.83,95,55,3.27,broken clouds
459,Nacala,MZ,-14.54,40.67,72.01,87,14,6.55,few clouds
460,Garden City,US,42.33,-83.33,78.8,44,75,13.87,broken clouds
461,Vardo,NO,70.37,31.11,51.17,78,77,14.23,broken clouds
462,Genhe,CN,50.78,121.52,51.39,91,100,3.47,overcast clouds
463,Sibolga,ID,1.74,98.78,76.96,81,67,3.11,broken clouds
464,Ouesso,CG,1.61,16.05,70.88,94,99,2.1,overcast clouds
465,Satka,RU,55.04,59.04,61.21,73,100,4.12,overcast clouds
466,Garowe,SO,8.41,48.48,78.22,59,72,23.91,broken clouds
467,Olafsvik,IS,64.89,-23.71,52.47,88,100,12.93,light rain
468,Arcachon,FR,44.59,-1.05,59.0,93,43,3.36,light rain
469,Saint-Jean-De-Maurienne,FR,45.17,6.58,48.99,99,100,0.63,light rain
470,Saint Anthony,US,45.02,-93.22,75.99,41,1,6.93,clear sky
471,Novonukutskiy,RU,53.7,102.71,54.3,93,100,6.87,light rain
472,Cap Malheureux,MU,-19.98,57.61,70.0,74,9,5.99,clear sky
473,Cayenne,GF,4.93,-52.33,78.8,88,89,3.36,overcast clouds
474,Salamanca,ES,40.83,-6.0,61.0,63,45,11.03,scattered clouds
475,Stokmarknes,NO,68.56,14.91,44.01,90,100,3.6,light rain
476,Mehamn,NO,71.04,27.85,48.76,81,71,10.45,broken clouds
477,Salinopolis,BR,-0.61,-47.36,80.29,79,9,15.21,clear sky
478,Dali,CN,25.7,100.18,62.64,87,100,2.39,light rain
479,Chabahar,IR,25.29,60.64,82.4,83,28,4.36,mist
480,Maldonado,UY,-34.67,-54.92,53.6,81,75,18.34,broken clouds
481,Praia,CV,14.92,-23.51,78.8,94,20,2.24,few clouds
482,Leicester,GB,52.64,-1.13,52.0,64,49,4.0,scattered clouds
483,Bad Kreuznach,DE,49.83,7.87,57.99,82,90,1.95,overcast clouds
484,Bennington,US,42.88,-73.2,71.6,88,75,5.82,heavy intensity rain
485,Damghan,IR,36.17,54.35,63.97,52,0,4.45,clear sky
486,Nargana,PA,9.44,-78.59,82.24,84,44,8.03,scattered clouds
487,Thinadhoo,MV,0.53,72.93,82.85,71,86,8.61,overcast clouds
488,Manzil Salim,TN,35.86,8.48,82.4,21,20,10.29,few clouds
489,Aksha,RU,50.28,113.29,52.34,91,100,0.96,light rain
490,Lgov,RU,51.63,35.28,59.81,76,52,8.86,broken clouds
491,Sola,VU,-13.88,167.55,79.21,85,68,23.29,broken clouds
492,Pietersburg,ZA,-23.9,29.47,68.0,42,40,3.36,scattered clouds
493,Vostok,RU,46.49,135.88,49.46,97,100,4.03,light rain
494,Saint-Joseph,RE,-21.37,55.62,68.0,82,20,8.05,few clouds
495,Rawson,AR,-43.3,-65.1,45.52,52,0,10.83,clear sky
496,Mbarara,UG,-0.61,30.65,65.19,83,64,4.25,broken clouds
497,Swellendam,ZA,-34.02,20.44,42.8,93,99,2.24,light rain
498,Kavieng,PG,-2.57,150.8,83.98,73,38,12.59,scattered clouds
499,Kaitangata,NZ,-46.28,169.85,59.0,56,21,14.0,few clouds
500,Heilbron,ZA,-27.28,27.97,42.13,57,9,5.68,clear sky
501,Koulamoutou,GA,-1.13,12.47,71.76,94,100,2.19,overcast clouds
502,Soyo,AO,-6.13,12.37,71.8,84,96,7.54,overcast clouds
503,Ouro Preto Do Oeste,BR,-10.75,-62.22,86.95,40,82,4.34,broken clouds
504,Korla,CN,41.76,86.15,72.0,66,0,3.0,clear sky
505,Praia Da Vitoria,PT,38.73,-27.07,75.2,88,20,8.37,few clouds
506,Yangambi,CD,0.81,24.43,70.21,97,100,1.63,overcast clouds
507,San Ramon,US,37.78,-121.98,87.8,31,1,9.17,smoke
508,Kodigenahalli,IN,13.72,77.39,71.6,100,40,9.17,scattered clouds
509,Oliver,CA,49.18,-119.55,77.0,27,40,18.34,scattered clouds
510,Marsh Harbour,BS,26.54,-77.06,84.33,70,100,3.13,overcast clouds
511,Nantucket,US,41.28,-70.1,71.6,94,90,14.99,mist
512,Kruisfontein,ZA,-34.0,24.73,46.99,78,59,3.0,broken clouds
513,Nijar,ES,36.97,-2.21,73.4,60,0,8.05,clear sky
514,Nokaneng,BW,-19.67,22.27,65.93,26,31,7.65,scattered clouds
515,Odweyne,SO,9.41,45.06,77.2,52,77,13.82,broken clouds
516,Fraserburgh,GB,57.69,-2.02,52.0,71,97,17.0,overcast clouds
517,Smidovich,RU,48.6,133.82,52.07,87,100,8.86,light rain
518,Mitsamiouli,KM,-11.38,43.28,75.4,71,0,10.4,clear sky
519,Morondava,MG,-20.28,44.28,72.88,87,0,4.52,clear sky
520,Manyana,BW,-23.4,21.72,46.78,51,13,12.71,few clouds
521,Nichinan,JP,31.6,131.37,80.6,83,75,6.93,broken clouds
522,Moyale,KE,3.52,39.06,67.87,73,27,10.11,scattered clouds
523,Port Hedland,AU,-20.32,118.57,68.0,45,0,9.17,clear sky
524,Panzhihua,CN,26.59,101.71,71.31,78,99,0.89,overcast clouds
525,Boueni,YT,-12.9,45.08,75.2,78,0,6.93,clear sky
526,Rosarito,MX,32.33,-117.03,77.0,60,1,6.93,clear sky
527,Nusaybin,TR,37.08,41.22,87.21,13,0,10.2,clear sky
528,Karasuk,RU,53.74,78.04,58.95,86,0,6.31,clear sky
529,Mocajuba,BR,-2.58,-49.51,80.83,71,50,3.8,scattered clouds
530,Butembo,CD,0.15,29.28,58.19,100,100,1.19,light rain
531,Maroantsetra,MG,-15.43,49.73,71.02,85,89,6.98,light rain
532,Waw,SS,7.7,28.0,72.16,91,98,3.4,overcast clouds
533,Goma,CD,-1.68,29.22,65.01,76,97,3.87,light rain
534,Durant,US,33.99,-96.37,104.0,31,1,5.82,clear sky
535,Thanh Hoa,VN,19.8,105.77,78.73,94,100,1.77,overcast clouds
536,Mugur-Aksy,RU,50.35,90.5,37.74,82,21,4.38,few clouds
537,Gamba,GA,-2.65,10.0,73.42,88,100,7.94,light rain
538,Jieshi,CN,22.81,115.83,81.55,80,92,8.03,overcast clouds
539,Lyaskelya,RU,61.77,31.02,49.6,93,51,4.32,broken clouds
540,Atherton,GB,53.52,-2.49,50.0,72,28,4.0,scattered clouds
541,Changji,CN,44.02,87.32,59.0,72,0,4.47,clear sky
542,Gunjur,GM,13.2,-16.73,78.8,94,75,8.72,broken clouds
543,Neuquen,AR,-38.95,-68.06,51.8,23,0,6.93,clear sky
544,Daru,PG,-9.08,143.21,78.94,85,97,17.6,overcast clouds
545,Khotkovo,RU,56.26,38.0,57.2,76,97,4.47,overcast clouds
546,Neiafu,TO,-18.65,-173.98,80.6,69,20,18.34,few clouds
547,Taoudenni,ML,22.68,-3.98,96.94,38,52,18.19,broken clouds
548,Hays,US,30.05,-98.03,102.0,31,0,4.0,clear sky
549,Lethem,GY,3.38,-59.8,77.41,79,100,1.14,overcast clouds
550,Ust-Tsilma,RU,65.44,52.15,46.33,89,24,5.86,few clouds
551,Barcelos,PT,41.54,-8.62,63.0,77,0,5.82,clear sky
552,Raduzhnyy,RU,62.1,77.47,52.84,92,11,0.76,few clouds
553,Todos Santos,MX,23.45,-110.22,81.0,83,100,10.0,overcast clouds
554,Riyadh,SA,24.69,46.72,86.0,19,49,5.82,scattered clouds
555,Morwell,AU,-38.23,146.4,46.0,87,84,1.01,broken clouds
556,Marzuq,YE,14.4,46.47,82.44,44,23,2.19,few clouds
557,Mamakan,RU,57.82,114.0,57.4,82,100,0.65,overcast clouds
558,Hovd,MN,48.01,91.64,50.41,67,83,5.08,broken clouds
559,Vanimo,PG,-2.67,141.3,81.19,71,58,3.31,broken clouds
560,Ozinki,RU,51.18,49.68,63.55,64,0,7.34,clear sky
561,Yoichi,JP,43.2,140.77,60.8,100,75,12.75,shower rain
562,Biak,ID,-0.91,122.88,76.91,78,100,9.26,overcast clouds
563,Shelburne,CA,44.08,-80.2,66.2,68,75,11.41,broken clouds
564,Guamuchil,MX,25.47,-108.1,91.0,66,57,8.01,light rain
565,Birobidzhan,RU,48.8,132.95,50.56,93,100,10.07,moderate rain
566,Evensk,RU,61.95,159.23,55.96,54,67,9.71,broken clouds
567,Tenango,MX,18.65,-98.18,72.0,53,75,14.99,broken clouds
568,Coihaique,CL,-45.58,-72.07,41.0,65,75,9.17,broken clouds
569,Muscle Shoals,US,34.74,-87.67,89.6,62,40,9.17,scattered clouds
570,Ust-Nera,RU,64.57,143.2,50.85,46,66,4.97,broken clouds
571,Lagoa,PT,39.05,-27.98,74.14,94,100,6.49,overcast clouds
572,Dumas,US,35.87,-101.97,86.0,37,1,3.36,clear sky
573,Apiai,BR,-24.51,-48.84,63.5,72,0,3.13,clear sky
574,Kupang,ID,-10.17,123.58,75.2,78,20,11.41,few clouds
575,Maputo,MZ,-25.97,32.59,69.01,88,75,10.29,broken clouds
576,Arlit,NE,18.74,7.39,90.64,43,40,11.61,scattered clouds
577,Merauke,ID,-8.47,140.33,78.35,84,52,15.66,broken clouds
578,Ulaangom,MN,49.98,92.07,51.35,64,91,1.95,overcast clouds
579,Lebork,PL,54.54,17.75,55.4,100,92,1.12,overcast clouds
580,Athens,GR,37.98,23.72,80.01,57,0,3.36,clear sky
581,Yuxia,CN,34.06,108.63,68.0,88,26,6.71,scattered clouds
582,Manado,ID,1.49,124.85,75.2,88,20,3.8,few clouds
583,Muros,ES,42.78,-9.06,55.99,86,0,1.01,clear sky
584,Novoagansk,RU,61.94,76.66,53.35,91,25,2.37,scattered clouds
585,Cesis,LV,57.31,25.27,59.0,96,89,4.0,overcast clouds
586,Dayong,CN,25.02,118.29,82.4,88,75,2.24,broken clouds
587,Upington,ZA,-28.45,21.26,42.8,78,0,8.05,clear sky
588,Balabac,PH,7.99,117.06,81.91,75,100,3.0,overcast clouds
589,Port Moresby,PG,-9.44,147.18,80.37,69,38,1.72,scattered clouds
590,Camopi,GF,3.17,-52.32,75.16,92,85,4.03,overcast clouds
591,Beaufort,MY,5.35,115.75,75.2,100,20,1.12,few clouds
592,Artsyz,UA,45.99,29.42,67.35,90,0,6.42,clear sky
593,Campo Largo,BR,-25.46,-49.53,73.4,53,0,3.36,clear sky
594,Saginaw,US,43.33,-84.03,72.0,49,75,12.75,broken clouds
595,Tynda,RU,55.17,124.72,48.31,82,92,1.41,overcast clouds
596,Berlin,DE,52.52,13.41,66.0,82,100,2.24,overcast clouds
597,Cukai,MY,4.25,103.42,77.0,88,69,2.24,broken clouds
598,Kaihua,CN,23.37,104.28,64.13,93,69,3.04,broken clouds
599,Weymouth,US,42.22,-70.94,75.99,88,100,13.87,overcast clouds
600,Young,UY,-32.68,-57.63,55.99,84,91,1.99,overcast clouds
601,Vigo,ES,42.23,-8.72,64.99,76,0,8.05,clear sky
602,Laizhou,CN,37.18,119.93,72.0,85,0,4.27,clear sky
603,Geilo,NO,60.53,8.21,41.0,88,8,3.27,clear sky
604,Barcelona,ES,41.39,2.16,68.0,82,40,5.82,scattered clouds
605,George,ZA,-33.96,22.46,42.8,87,33,14.99,light rain
606,Makakilo City,US,21.35,-158.09,89.6,43,1,11.41,clear sky
607,Te Anau,NZ,-45.42,167.72,50.4,78,100,7.76,overcast clouds
608,Baruun-Urt,MN,46.68,113.28,52.77,95,100,14.05,moderate rain
609,Copiapo,CL,-27.37,-70.33,57.2,67,22,16.11,few clouds
610,Talas,TR,38.69,35.55,64.4,31,0,8.05,clear sky
611,La Ronge,CA,55.1,-105.28,68.0,56,90,12.75,overcast clouds
612,Xining,CN,36.62,101.77,48.83,85,100,1.36,light rain
613,Novochernorechenskiy,RU,56.27,91.08,50.74,88,98,5.59,overcast clouds
614,Senno,RU,59.53,33.92,50.0,93,100,3.76,overcast clouds
615,Taloqan,AF,36.74,69.53,63.57,40,0,3.42,clear sky
616,Kenai,US,60.55,-151.26,62.6,51,1,9.17,clear sky
617,Gazli,UZ,40.13,63.45,70.97,25,0,8.99,clear sky
618,Waingapu,ID,-9.66,120.26,73.6,77,5,8.66,clear sky
619,Namibe,AO,-15.2,12.15,60.96,69,0,2.17,clear sky
620,Skjervoy,NO,70.03,20.97,48.02,71,78,3.47,broken clouds
621,Charters Towers,AU,-20.1,146.27,67.84,63,16,18.5,few clouds
622,Elliot Lake,CA,46.38,-82.63,62.6,82,75,21.92,broken clouds
623,Cockburn Town,TC,21.46,-71.14,84.2,74,40,4.7,scattered clouds
624,Nadym,RU,65.53,72.52,41.94,86,100,7.63,overcast clouds
625,Madang,PG,-5.22,145.8,81.57,76,11,2.35,few clouds
626,Presidencia Roque Saenz Pena,AR,-26.79,-60.44,81.91,47,96,13.09,overcast clouds
627,Gushikawa,JP,26.35,127.87,82.4,88,1,9.17,clear sky
628,Fuerte Olimpo,PY,-21.04,-57.87,84.34,22,0,4.32,clear sky
629,Maine-Soroa,NE,13.21,12.02,78.66,64,100,3.29,overcast clouds
630,Dutse,NG,11.76,9.34,72.54,90,98,7.7,moderate rain
631,Tilichiki,RU,60.47,166.1,50.2,67,82,8.86,broken clouds
632,Micheweni,TZ,-4.97,39.83,73.56,83,16,8.28,few clouds
633,Kyzyl,RU,51.7,94.45,50.4,83,100,4.14,overcast clouds
634,Cagliari,IT,39.24,9.09,80.6,69,0,5.82,clear sky
635,Poronaysk,RU,49.22,143.12,55.06,71,100,4.92,overcast clouds
636,Colquechaca,BO,-18.67,-66.02,45.82,54,7,4.79,clear sky
637,Mayumba,GA,-3.43,10.66,73.58,88,100,9.64,light rain
638,Progreso,MX,21.28,-89.67,97.0,50,75,92.16,broken clouds
639,Ossora,RU,59.24,163.07,55.92,59,59,9.69,broken clouds
640,Isabela,PH,6.71,121.97,77.0,94,90,2.66,overcast clouds
641,Urucui,BR,-7.23,-44.56,83.08,33,4,5.21,clear sky
642,Key Largo,US,25.09,-80.45,86.0,1,100,3.0,overcast clouds
643,Lata,PT,40.16,-8.33,63.0,79,0,0.6,clear sky
644,Ariquemes,BR,-9.91,-63.04,83.55,54,81,2.04,broken clouds
645,Karanpura,IN,29.1,75.09,87.04,61,0,9.06,clear sky
646,Melfi,IT,41.0,15.65,79.0,69,5,4.7,clear sky
647,Nacogdoches,US,31.6,-94.63,93.99,56,1,6.93,clear sky
648,Valdosta,US,30.83,-83.28,81.0,83,40,6.93,scattered clouds
649,Bose,IT,45.46,8.01,66.0,98,98,1.01,light rain
650,Guilin,CN,25.28,110.29,75.2,94,20,2.24,few clouds
651,Thaba-Tseka,LS,-29.52,28.61,31.46,81,0,3.29,clear sky
652,Huarmey,PE,-10.07,-78.15,63.14,78,4,10.54,clear sky
653,Charleville-Mezieres,FR,49.77,4.72,54.0,93,9,5.82,clear sky
654,Slave Lake,CA,55.28,-114.77,60.8,48,75,18.34,broken clouds
655,Matai,TZ,-8.3,31.52,59.74,39,0,4.65,clear sky
656,Zapolyarnyy,RU,69.42,30.81,50.0,71,58,17.22,broken clouds
657,Barranca,PE,-10.75,-77.77,60.98,85,17,10.29,few clouds
658,Soe,ID,-9.86,124.28,64.56,78,72,5.12,broken clouds
659,Guataqui,CO,4.52,-74.79,82.89,64,13,2.71,light rain
660,Kitimat,CA,54.05,-128.65,57.2,82,75,5.82,broken clouds
661,Treinta Y Tres,UY,-33.23,-54.38,54.61,78,99,12.57,overcast clouds
662,Chumikan,RU,54.72,135.31,55.89,59,11,6.78,few clouds
663,Douglas,US,41.3,-96.17,82.4,28,1,3.78,clear sky
664,Borgarnes,IS,64.54,-21.92,53.6,81,90,10.29,overcast clouds
665,Moussoro,TD,13.64,16.49,75.94,74,97,5.39,overcast clouds
666,Bonavista,CA,48.65,-53.11,60.01,78,53,11.01,broken clouds
667,Novosergiyevka,RU,52.09,53.65,65.61,65,87,9.15,light rain
668,Quatre Cocos,MU,-20.21,57.76,70.0,77,75,14.99,broken clouds
669,West Bay,KY,19.37,-81.42,89.6,70,20,8.05,few clouds
670,Kieta,PG,-6.22,155.63,85.05,68,3,7.2,clear sky
671,Khapa,IN,21.43,78.97,73.4,100,90,5.82,mist
672,Sinnamary,GF,5.38,-52.95,79.79,85,100,11.68,light rain
673,Dzhebariki-Khaya,RU,62.22,135.8,54.3,45,100,3.27,overcast clouds
674,Poletayevo,RU,55.03,61.11,62.6,93,40,4.47,mist
675,Havoysund,NO,71.0,24.66,42.8,93,59,10.29,broken clouds
676,Skibbereen,IE,51.55,-9.27,50.0,76,75,5.82,broken clouds
677,Launceston,AU,-41.45,147.17,60.01,71,51,21.92,broken clouds
678,Maragogi,BR,-9.01,-35.22,74.82,84,32,11.65,light rain
679,Metro,ID,-5.11,105.31,73.76,86,77,3.31,broken clouds
680,Casma,CL,-41.01,-73.12,46.4,75,40,4.7,scattered clouds
681,Fuyu,CN,45.18,124.82,61.65,89,50,6.58,scattered clouds
682,Bonthe,SL,7.53,-12.51,76.3,88,100,10.18,moderate rain
683,Tadine,NC,-21.55,167.88,69.22,67,69,19.64,broken clouds
684,Wangou,CN,42.06,126.91,65.3,94,6,0.4,clear sky
685,Turkistan,KZ,43.0,68.0,72.91,32,0,16.91,clear sky
686,Nam Som,TH,17.77,102.19,75.25,93,98,2.01,overcast clouds
687,Qasigiannguit,GL,68.82,-51.19,46.4,61,40,6.93,scattered clouds
688,Severodvinsk,RU,64.56,39.83,55.4,93,90,4.47,overcast clouds
689,Udachnyy,RU,66.42,112.4,48.2,61,90,2.24,haze
690,Camana,PE,-16.62,-72.71,60.33,81,93,8.93,overcast clouds
691,Rabaul,PG,-4.2,152.17,84.06,70,32,15.97,scattered clouds
692,Chiman,PK,32.55,73.81,80.6,83,0,4.07,smoke
693,Hambantota,LK,6.12,81.12,80.01,79,100,16.08,overcast clouds
694,Galesong,ID,-5.32,119.37,73.4,88,20,1.12,few clouds
695,Miracema Do Tocantins,BR,-9.56,-48.4,82.38,24,0,3.47,clear sky
696,Atbasar,KZ,51.8,68.33,63.95,59,40,4.94,scattered clouds
697,Waipawa,NZ,-41.41,175.52,59.0,58,13,24.16,few clouds
698,Port Hardy,CA,50.7,-127.42,62.6,63,75,14.99,broken clouds
699,Juneau,US,58.3,-134.42,60.01,71,90,5.82,overcast clouds
700,Flagstaff,US,35.2,-111.65,79.0,27,20,18.34,few clouds
701,Miraflores,MX,19.22,-98.81,73.4,43,40,6.93,scattered clouds
702,Robertsport,LR,6.75,-11.37,76.33,87,100,13.91,moderate rain
703,Kochi,IN,9.94,76.26,78.8,94,75,4.7,mist
704,Ugoofaaru,MV,5.67,73.0,82.72,67,100,4.43,overcast clouds
705,Platteville,US,42.73,-90.48,77.0,41,1,10.29,clear sky
706,Palau,PW,7.5,134.62,83.34,76,78,9.1,light rain
707,Pangnirtung,CA,66.15,-65.71,54.41,42,40,1.61,scattered clouds
708,Cosala,MX,24.41,-106.69,86.0,78,75,10.0,moderate rain
709,Mujiayingzi,CN,42.12,118.78,68.05,81,91,1.59,overcast clouds
710,Rucheng,CN,32.39,120.56,84.0,65,12,5.84,few clouds
711,Negombo,LK,7.21,79.84,82.4,78,20,9.17,few clouds
712,Hofn,IS,64.25,-15.21,50.32,75,97,1.68,overcast clouds
713,Arman,RU,59.7,150.17,53.8,51,0,9.51,clear sky
714,Kendallville,US,41.44,-85.27,73.4,56,1,5.82,clear sky
715,Susanville,US,40.42,-120.65,95.0,9,1,9.17,clear sky
716,Jacareacanga,BR,-6.22,-57.75,83.55,56,83,2.26,broken clouds
717,Dunmore Town,BS,25.5,-76.65,84.58,66,51,4.14,broken clouds
